
{
  "gardens": [
    {
      "manager_id": "garden_01",
	  "image": "images/garden_01.jpg",
      "score": 5,
      "name": "나폴리농원",
      "address": "경상남도 통영시 산양읍 미륵산길 152",
      "phone": "010-3117-9030",
      "management": "나폴리농원",
      "introduce": "기존 팔각정자를 바탕으로 전통적인 느낌의 공간을 조성하여 고즈넉하고 편안한 공간 계획, 평택의 이미지와 전통적인 분위기 조성합니다.", 
      "latitude": 34.8022,
      "longitude": 128.4242,
      "themes": [
        "등산길",
        "자연적",
        "휴양지",
        "시원"
      ]
    },
    {
      "manager_id": "garden_02",
      "image": "images/garden_02.jpg",
      "score": 3,
      "name": "사천식물랜드",
      "address": "경상남도 사천시 용현면 덕곡리 82-4 일원",
      "phone": "010-4590-8718",
      "management": "사천식물랜드",
      "introduce": "분수를 감싸고 있는 아름다운 경사지에 거대한 분수대가 손님을 가장 먼저 맞이하는 광장입니다.",
      "latitude": 34.9954,
      "longitude": 128.0653,
      "themes": [
        "꽃길",
        "관광지",
        "광활"
      ]
    },
    {
      "manager_id": "garden_03",
      "image": "images/garden_03.jpg",
      "score": 8,
      "name": "해솔찬정원",
      "address": "경상남도 통영시 도산면 저산리 572-1",
      "phone": "055-643-0564",
      "management": "해솔찬정원",
      "introduce": "늘 푸른 구상나무와 초여름 연분홍 꽃을 피우는 자귀나무가 펼쳐진 잔디마당은 관람객들의 눈길을 사로잡는 곳입니다.",
      "latitude": 34.8992,
      "longitude": 128.3076,
      "themes": [
        "체험학습",
        "초원",
        "식물원"
      ]
    },
    {
      "manager_id": "garden_04",
      "image": "images/garden_04.jpg",
      "score": 5,
      "name": "통영동백커피식물원",
      "address": "경상남도 통영시 도산면 원산리 920 일원",
      "phone": "010-3557-9634",
      "management": "통영동백커피식물원",
      "introduce": "정원을 만드는 과정에서 죽은 참나무로 쉼터를 만들었으며 봄에는 복수초와 철쭉, 여름에는 산수국, 가을에는 꽃무릇, 구절초를 볼 수 있습니다.",
      "latitude": 34.9358,
      "longitude": 128.3565,
      "themes": [
        "식물원",
        "과수원",
        "촉촉"
      ]
    },
    {
      "manager_id": "garden_05",
      "image": "images/garden_05.jpg",
      "score": 1,
      "name": "물빛소리정원",
      "address": "경상남도 통영시 도산면 수월리 655-3",
      "phone": "010-3588-6453",
      "management": "물빛소리정원",
      "introduce": "물빛소리정원 옆으로 길게 뻗은 벚나무길에는 아름다운 루미나리에로 장식되어있어 밤이 되면 그 아름다움을 뽐냅니다.",
      "latitude": 34.9358,
      "longitude": 128.3565,
      "themes": [
        "꽃길",
        "관광지",
        "광활"
      ]
    },
    {
      "manager_id": "garden_06",
      "image": "images/garden_06.jpg",
      "score": 2,
      "name": "춘화의 정원",
      "address": "경상남도 통영시 도산면 도산일주로 56",
      "phone": "010-2596-6344",
      "management": "춘화의 정원",
      "introduce": "잎이나 단풍, 꽃과 열매, 가지가 빨간색인 식물과 빨간색의 쉘터. 빨간색이 색깔 고유의 파장과 에너지를 활용해 신체와 마음을 치료합니다.",
      "latitude": 34.9027,
      "longitude": 128.3591,
      "themes": [
        "체험학습",
        "산책로"
      ]
    },
    {
      "manager_id": "garden_07",
      "image": "images/garden_07.jpg",
      "score": 7,
      "name": "농부가그린정원",
      "address": "경상남도 김해시 진영읍 좌곤리 765-1",
      "phone": "010-3832-8430",
      "management": "농부가그린정원",
      "introduce": "빛나는 번영과 발전을 상징하는 정원으로 연속성이 있는 뫼비우스의 띠를 모티브 한 공간을 구상된 정원입니다.",
      "latitude": 35.3086,
      "longitude": 128.7089,
      "themes": [
        "식물원"
      ]
    },
    {
      "manager_id": "garden_08",
      "image": "images/garden_08.jpg",
      "score": 8,
      "name": "엄마의정원",
      "address": "경상남도 밀양시 하남읍 남전7길 41-19",
      "phone": "010-3884-1100",
      "management": "엄마의정원",
      "introduce": "더불어 살아가는 다채로운 무지개 조형목과 겹겹이 쌓은 나뭇가지로 비유하여 다양한 문화의 포용을 느낄 수 있습니다.",
      "latitude": 35.4071,
      "longitude": 128.7317,
      "themes": [
        "광활",
        "식물원"
      ]
    },
    {
      "manager_id": "garden_09",
      "image": "images/garden_09.jpg",
      "score": 4,
      "name": "녹색교육정원",
      "address": "경상남도 양산시 동면 개곡로77번길",
      "phone": "010-5574-7176",
      "management": "녹색교육정원",
      "introduce": "사회와 시민, 자연과 사람간의 소통공간으로 서로를 이해하며 감싸주는 관계의 시작점으로 조화롭게 살아가는 화합을 상징합니다.",
      "latitude": 35.3508,
      "longitude": 129.1226,
      "themes": [
        "체험학습",
        "빈티지",
        "자연적"
      ]
    },
    {
      "manager_id": "garden_10",
      "image": "images/garden_10.jpg",
      "score": 9,
      "name": "옥동힐링가든",
      "address": "경상남도 거제시 둔덕면 청마로 665-13",
      "phone": "055-636-8988",
      "management": "옥동힐링가든",
      "introduce": "사이프러스 나무를 대체하여 파주지역에 월동이 가능한 은청색의 블루엔젤이라는 측백나무를 식재하여 비스타를 형성하였습니다.",
      "latitude": 34.8703,
      "longitude": 128.5461,
      "themes": [
        "공원",
        "체험학습",
        "폭포",
        "추억"
      ]
    },
    {
      "manager_id": "garden_11",
      "image": "images/garden_11.jpg",
      "score": 1,
      "name": "새미골정원",
      "address": "경상남도 양산시 동면 개곡리 564",
      "phone": "010-3885-1567",
      "management": "새미골정원",
      "introduce": "사계장미, 플로리분다 등 프랑스, 독일 등의 장미가 자리하고 있습니다. 봄에는 다양한 사계장미가 트렐리스 아치 등에 연출될 예정입니다.",
      "latitude": 35.3542,
      "longitude": 129.1178,
      "themes": [
        "공원",
        "산",
        "시원"
      ]
    },
    {
      "manager_id": "garden_12",
	  "image": "images/garden_12.jpg",
      "score": 3,
      "name": "느티나무의 사랑",
      "address": "경상남도 양산시 동면 여락리 103 일원",
      "phone": "055-912-5551",
      "management": "느티나무의 사랑",
      "introduce": "자수화단이 한눈에 내려다 보이는 해피가든에서는 봄부터 가을까지 매주 재즈공연이 열립니다. 라이브 공연과 함께 즐기는 맥주 한잔의 여유를 즐길 수 있습니다.",
      "latitude": 35.3075,
      "longitude": 129.1066,
      "themes": [
        "나무",
        "광활",
        "공원"
      ]
    },
    {
      "manager_id": "garden_13",
	  "image": "images/garden_13.jpg",
      "score": 2,
      "name": "만년교정원",
      "address": "경상남도 창녕군 영산면 원다리길 17",
      "phone": "010-9431-2277",
      "management": "만년교정원",
      "introduce": "‘사라진 도시의 복원’이라는 벽화가 있습니다. 폭포의 안으로 들어가면 사라진 도시를 한껏 느낄 수 있습니다.",
      "latitude": 35.453,
      "longitude": 128.5296,
      "themes": [
        "농촌",
        "대형",
        "자연적"
      ]
    },
    {
      "manager_id": "garden_14",
	  "image": "images/garden_14.jpg",
      "score": 5,
      "name": "그레이스정원",
      "address": "경상남도 고성군 상리면 삼상로 1312-71",
      "phone": "055-673-1803",
      "management": "그레이스정원",
      "introduce": "푸른 잔디밭에서는 결혼, 가정, 출산의 여신인 헤라가 여는 행복의 파티가 열리는 정원입니다.",
      "latitude": 34.975,
      "longitude": 128.168,
      "themes": [
        "자연적",
        "휴양지",
        "산림욕",
        "광활"
      ]
    },
    {
      "manager_id": "garden_15",
	  "image": "images/garden_15.jpg",
      "score": 3,
      "name": "만화방초정원",
      "address": "경상남도 고성군 거류면 은황길 82-91",
      "phone": "010-3870-1041",
      "management": "만화방초",
      "introduce": "수목한계선 아래에 자생하는 고산식물과 건조 기후에 사는 다육식물, 마름견딜성 식물들이 실개울과 연못 주변에 다양한 형식으로 연출되었습니다.",
      "latitude": 34.9607,
      "longitude": 128.3854,
      "themes": [
        "산책로",
        "시원",
        "자연적"
      ]
    },
    {
      "manager_id": "garden_16",
	  "image": "images/garden_16.jpg",
      "score": 4,
      "name": "섬이정원",
      "address": "경상남도 남해군 남면 평산리 888-4번지",
      "phone": "010-2255-3577",
      "management": "섬이정원",
      "introduce": "작은 호수 중앙에 하트모양의 섬과 빨간색 흔들다리, 하트모양의 연못, 다양한 수변, 수생 식물과 생물 등이 서식할 수 있는 생태와 사랑을 주제로 한 정원입니다.",
      "latitude": 34.7527,
      "longitude": 127.8608,
      "themes": [
        "나무",
        "산책로",
        "빈티지"
      ]
    },
    {
      "manager_id": "garden_17",
	  "image": "images/garden_17.jpg",
      "score": 6,
      "name": "화계리정원",
      "address": "경상남도 남해군 이동면 화계리 292-6",
      "phone": "010-4074-6444",
      "management": "화계리정원",
      "introduce": "푸른 잔디, 편안한 평상, 시원하게 펼쳐진 나무 그늘에서 잠시 쉬어가는 여유 시간을 즐길 수 있습니다.",
      "latitude": 34.7778,
      "longitude": 127.9401,
      "themes": [
        "친근",
        "빈티지",
        "나무"
      ]
    },
    {
      "manager_id": "garden_18",
	  "image": "images/garden_18.jpg",
      "score": 5,
      "name": "토피어리정원",
      "address": "경상남도 남해군 창선면 서부로 270-106",
      "phone": "010-2851-2978",
      "management": "토피어리정원",
      "introduce": "지형적 제약으로 경사지를 계단형으로 만든 이탈리아의 대표적인 노단 건축식 정원입니다.",
      "latitude": 34.8455,
      "longitude": 127.9818,
      "themes": [
        "체험학습",
        "초원",
        "산",
        "꽃길",
        "동화"
      ]
    },
    {
      "manager_id": "garden_19",
	  "image": "images/garden_19.jpg",
      "score": 1,
      "name": "하미앙정원",
      "address": "경남 함양군 함양읍 삼봉로 442-14",
      "phone": "055-964-2500",
      "management": "하미앙정원",
      "introduce": "새들이 좋아하는 열매 식물들을 심어 놓은 정원으로 파주 운정지구 개발로 없어지게 될 나무들을 이식하여 자연 훼손방지, 자연과 공생하는 친 환경적인 정원입니다.",
      "latitude": 35.47,
      "longitude": 127.6718,
      "themes": [
        "공원",
        "휴식",
        "광활"
      ]
    },
    {
      "manager_id": "garden_20",
	  "image": "images/garden_20.jpg",
      "score": 3,
      "name": "이수미팜베리정원",
      "address": "경상남도 거창군 거창읍 가지리 산250-3",
      "phone": "055-945-1789",
      "management": "이수미팜베리정원",
      "introduce": "남쪽지방 난대 수종과 아열대, 열대, 건조지 수종으로 남도 숲, 녹차밭, 귤원, 동백원, 향기원, 연꽃과 열대성 조류가 있는 버드가든 등 사계절 다양한 테마가 있는 정원입니다.",
      "latitude": 35.7104,
      "longitude": 127.8861,
      "themes": [
        "음식점",
        "산책로",
        "아늑"
      ]
    },
    {
      "manager_id": "garden_21",
	  "image": "images/garden_21.jpg",
      "score": 6,
      "name": "이한메미술관",
      "address": "경상남도 거창군 북상면 송계로 1243-15",
      "phone": "010-3227-0345",
      "management": "이한메미술관",
      "introduce": "다양한 작품이 존재하고 입구에는 아름다운 꽃들과 향기가 공존하는 정원이 존재합니다.",
      "latitude": 35.8209,
      "longitude": 127.8111,
      "themes": [
        "공원",
        "광활",
        "시원"
      ]
    },
    {
      "manager_id": "garden_22",
	  "image": "images/garden_22.jpg",
      "score": 4,
      "name": "자연의소리정원",
      "address": "경상남도 거창군 가북면 용암리 산62 일원",
      "phone": "055-262-2729",
      "management": "자연의소리정원",
      "introduce": "사계절 흰색 꽃과 흐니 자작이 둘러쌓고 있는 하얀 빛깔의 숲 중앙에는 달빛이 비치는 연못이 자리하고 있습니다.",
      "latitude": 35.8311,
      "longitude": 128.0783,
      "themes": [
        "산",
        "산책로",
        "연못",
        "예술"
      ]
    }
  ]
}